#=========================================================================
#       www.Minnelusa.com                   email: info@Minnelusa.com
#       Minnelusa Digital Well Log Data
#=========================================================================
~VERSION INFORMATION
VERS. 2.0 :CWLS log ASCII Standard - Version 2.0
WRAP. NO  :One Line per Depth Step
CREA. 07-23-2025 :LAS File Creation Date (MM-DD-YYYY)
~WELL INFORMATION BLOCK
#MNEM .UNIT        Data               Description of
#---- -----        -----------------  ---------------------------
STRT .F         10180.0000  :START DEPTH
STOP .F         10414.0000  :STOP DEPTH
STEP .F             1.0000  :STEP
NULL .           -999.25  :NULL VALUE
COMP .      Cramer Oil                 :COMPANY
WELL .      #36-16 State               :WELL
LOC  .      SE SE 36-47N-71W           :LOCATION
CNTY .      Campbell                   :COUNTY
FLD  .                                 :FIELD
STAT .      Wyoming                    :STATE
CTRY .      U.S.A.                     :COUNTRY
DATE .      11/91                      :COMPLETION DATE (MM/YY)
API  .      49-005-30258-0000          :API NUMBER
SRVC .                                 :SERVICE COMPANY
~CURVE INFORMATION BLOCK
#MNEM .UNIT        Curve Description
#---- -----        -------------------------------------
DEPT .F           :1 DEPTH
DT   .US/F        :2 SONIC DELTA-T
RESD .OHMM        :3 DEEP RESISTIVITY
SP   .MV          :4 SP CURVE
GR   .GAPI        :5 GAMMA RAY
NPHI .V/V         :6 NEUTRON POROSITY
RHOB .G/CC        :7 BULK DENSITY
~PARAMETER INFORMATION BLOCK
#MNEM .UNIT        Value              Information
#---- -----        -----------------  ---------------------------
BHT  .DEGF        194.0000  :BOTTOM HOLE TEMPERATURE
RMF  .OHMM          0.4410  :MUD FILTRATE RESISTIVITY
RMFT .DEGF         68.0000  :MEASURE TEMPERATURE OF RMF
EKB  .F          4642.0000  :ELEVATION KELLY BUSHING
SECT .      36                     :SECTION
TOWN .      47N                    :TOWNSHIP
RANG .      71W                    :RANGE
~ASCII DATA
10180.0000     59.9000     22.0000     45.6000    116.0000    0.2500      2.3000
10181.0000     59.9000     21.0000     49.0000    114.0000    0.2450      2.3100
10182.0000     60.5000     19.7000     53.0000    127.0000    0.2600      2.2900
10183.0000     63.5000     18.9000     55.6000    150.0000    0.2800      2.2700
10184.0000     64.5000     18.2000     58.4000    155.0000    0.2900      2.2600
10185.0000     64.6000     18.0000     62.5000    140.0000    0.2850      2.2800
10186.0000     61.5000     18.0000     64.7000    121.0000    0.2700      2.3000
10187.0000     59.2000     21.0000     66.9000    106.0000    0.2400      2.3500
10188.0000     55.9000     29.0000     69.3000     62.0000    0.1800      2.4500
10189.0000     52.1000     53.0000     71.3000     25.0000    0.1000      2.5500
10190.0000     49.1000    390.0000     73.7000      9.0000    0.0500      2.6000
10191.0000     47.8000   1501.0000     75.7000     11.0000    0.0400      2.6100
10192.0000     47.2000   2093.0000     76.7000     11.0000    0.0350      2.6200
10193.0000     47.2000   1677.0000     77.1000     10.0000    0.0380      2.6200
10194.0000     48.5000   1077.0000     77.5000      9.0000    0.0450      2.6000
10195.0000     49.6000    765.0000     77.5000      8.0000    0.0550      2.5800
10196.0000     48.3000    564.0000     77.5000      8.0000    0.0600      2.5900
10197.0000     46.9000    554.0000     77.5000      8.0000    0.0620      2.6100
10198.0000     46.6000    487.0000     77.1000     10.0000    0.0650      2.6200
10199.0000     46.8000    159.0000     76.5000     15.0000    0.0700      2.6000
10200.0000     46.7000     74.0000     75.9000     16.0000    0.0800      2.5500
10201.0000     47.8000     57.0000     74.7000     14.0000    0.0900      2.5000
10202.0000     51.2000     50.0000     73.7000     14.0000    0.1000      2.4500
10203.0000     51.6000     48.0000     71.1000     18.0000    0.1100      2.4000
10204.0000     51.1000     48.0000     67.3000     23.0000    0.1200      2.3800
10205.0000     51.4000     49.0000     63.7000     27.0000    0.1300      2.3600
10206.0000     52.3000     56.0000     60.6000     28.0000    0.1400      2.3400
10207.0000     52.3000     59.0000     57.8000     20.0000    0.1500      2.3200
10208.0000     51.5000     61.0000     53.2000     17.0000    0.1600      2.3000
10209.0000     51.2000     52.0000     48.2000     72.0000    0.1700      2.2800
10210.0000     53.3000     24.0000     42.9000    109.0000    0.1800      2.2600
10211.0000     57.6000     17.5000     37.9000    131.0000    0.1900      2.2400
10212.0000     60.6000     15.4000     34.5000    135.0000    0.2000      2.2200
10213.0000     60.8000     15.2000     31.7000    122.0000    0.2100      2.2000
10214.0000     59.5000     15.2000     30.1000    119.0000    0.2050      2.2100
10215.0000     59.7000     15.2000     28.5000    128.0000    0.2000      2.2200
10216.0000     61.1000     14.7000     27.2000    135.0000    0.2100      2.2000
10217.0000     61.6000     12.9000     26.0000    138.0000    0.2200      2.1900
10218.0000     61.8000     12.0000     24.4000    139.0000    0.2250      2.1800
10219.0000     62.0000     11.0000     23.4000    139.0000    0.2300      2.1700
10220.0000     62.2000     10.6000     22.2000    135.0000    0.2350      2.1600
10221.0000     62.2000     10.5000     21.2000    135.0000    0.2400      2.1500
10222.0000     62.2000     10.5000     20.8000    129.0000    0.2420      2.1600
10223.0000     60.9000     10.8000     20.2000    119.0000    0.2450      2.1800
10224.0000     60.8000     11.1000     19.8000    123.0000    0.2500      2.1900
10225.0000     61.5000     11.2000     19.2000    116.0000    0.2550      2.2000
10226.0000     61.4000     10.7000     19.0000    118.0000    0.2580      2.2100
10227.0000     61.9000      9.9000     19.0000    135.0000    0.2600      2.2000
10228.0000     63.2000      9.3000     18.8000    149.0000    0.2650      2.1900
10229.0000     64.4000      9.0000     18.6000    153.0000    0.2700      2.1800
10230.0000     62.6000      9.4000     18.4000    120.0000    0.2680      2.1900
10231.0000     61.4000     10.1000     18.2000    108.0000    0.2600      2.2000
10232.0000     61.0000     10.2000     18.2000    105.0000    0.2550      2.2100
10233.0000     61.1000     10.0000     18.2000    116.0000    0.2500      2.2200
10234.0000     62.8000      8.0000     18.2000    134.0000    0.2400      2.2000
10235.0000     65.4000      7.1000     18.2000    138.0000    0.2300      2.1800
10236.0000     66.3000      6.5000     18.8000    132.0000    0.2250      2.1700
10237.0000     66.2000      5.8000     19.4000    131.0000    0.2200      2.1600
10238.0000     68.3000      5.0000     20.4000    135.0000    0.2100      2.1500
10239.0000     69.8000      4.2000     21.6000    140.0000    0.2000      2.1400
10240.0000     70.6000      3.6000     22.4000    144.0000    0.1900      2.1300
10241.0000     72.4000      3.3000     23.8000    129.0000    0.1800      2.1200
10242.0000     74.2000      3.2000     25.0000    118.0000    0.1700      2.1100
10243.0000     74.3000      3.3000     26.4000    119.0000    0.1650      2.1000
10244.0000     71.5000      4.0000     28.0000    114.0000    0.1700      2.1100
10245.0000     63.5000      4.9000     29.3000     87.0000    0.1800      2.1500
10246.0000     60.1000      5.4000     30.5000     80.0000    0.1900      2.2000
10247.0000     65.2000      5.8000     31.3000     99.0000    0.2000      2.1800
10248.0000     68.2000      6.2000     32.7000     99.0000    0.2100      2.1700
10249.0000     66.4000      6.6000     33.5000     89.0000    0.2200      2.1800
10250.0000     63.2000      7.6000     34.3000    100.0000    0.2300      2.1900
10251.0000     63.4000      8.9000     34.9000    118.0000    0.2400      2.2000
10252.0000     65.3000     10.1000     35.7000    124.0000    0.2500      2.1900
10253.0000     65.1000     11.2000     36.1000    117.0000    0.2600      2.1800
10254.0000     64.1000     12.4000     36.1000    120.0000    0.2700      2.1700
10255.0000     63.9000     15.1000     36.3000    123.0000    0.2800      2.1600
10256.0000     63.9000     16.6000     36.3000    124.0000    0.2850      2.1500
10257.0000     63.9000     17.5000     36.3000    123.0000    0.2900      2.1400
10258.0000     63.9000     18.0000     36.3000    120.0000    0.2950      2.1300
10259.0000     63.5000     18.0000     36.3000    120.0000    0.2980      2.1200
10260.0000     62.7000     18.0000     36.3000    125.0000    0.3000      2.1100
10261.0000     63.1000     18.0000     36.3000    130.0000    0.3020      2.1000
10262.0000     63.6000     19.0000     36.3000    126.0000    0.3050      2.0900
10263.0000     61.1000     21.0000     36.3000    113.0000    0.3100      2.0800
10264.0000     58.4000     23.0000     36.9000    100.0000    0.3200      2.0700
10265.0000     58.1000     27.0000     37.9000     90.0000    0.3300      2.0600
10266.0000     58.1000     30.0000     38.5000     78.0000    0.3400      2.0500
10267.0000     57.7000     33.0000     39.7000     66.0000    0.3500      2.0400
10268.0000     57.1000     35.0000     40.1000     69.0000    0.3600      2.0300
10269.0000     56.6000     35.0000     40.5000     96.0000    0.3700      2.0200
10270.0000     56.8000     30.0000     40.5000    103.0000    0.3800      2.0100
10271.0000     59.5000     27.0000     40.7000    113.0000    0.3900      2.0000
10272.0000     61.3000     23.0000     40.9000    122.0000    0.3850      2.0100
10273.0000     61.9000     19.9000     40.9000    122.0000    0.3800      2.0200
10274.0000     61.9000     18.9000     41.1000    117.0000    0.3750      2.0300
10275.0000     62.1000     18.5000     41.1000    118.0000    0.3700      2.0400
10276.0000     62.5000     19.4000     41.1000    120.0000    0.3650      2.0500
10277.0000     62.5000     20.0000     41.3000    119.0000    0.3600      2.0600
10278.0000     62.5000     20.0000     41.7000    122.0000    0.3550      2.0700
