#=========================================================================
#       www.Minnelusa.com                   email: info@Minnelusa.com
#       Minnelusa Digital Well Log Data
#=========================================================================
~VERSION INFORMATION
VERS. 2.0 :CWLS log ASCII Standard - Version 2.0
WRAP. NO  :One Line per Depth Step
CREA. 07-23-2025 :LAS File Creation Date (MM-DD-YYYY)
~WELL INFORMATION BLOCK
#MNEM .UNIT        Data               Description of
#---- -----        -----------------  ---------------------------
STRT .F         10180.0000  :START DEPTH
STOP .F         10414.0000  :STOP DEPTH
STEP .F             1.0000  :STEP
NULL .           -999.25  :NULL VALUE
COMP .      Cramer Oil                 :COMPANY
WELL .      #36-16 State               :WELL
LOC  .      SE SE 36-47N-71W           :LOCATION
CNTY .      Campbell                   :COUNTY
FLD  .                                 :FIELD
STAT .      Wyoming                    :STATE
CTRY .      U.S.A.                     :COUNTRY
DATE .      11/91                      :COMPLETION DATE (MM/YY)
API  .      49-005-30258-0000          :API NUMBER
SRVC .                                 :SERVICE COMPANY
~CURVE INFORMATION BLOCK
#MNEM .UNIT        Curve Description
#---- -----        -------------------------------------
DEPT .F           :1 DEPTH
DT   .US/F        :2 SONIC DELTA-T
RESD .OHMM        :3 DEEP RESISTIVITY
SP   .MV          :4 SP CURVE
GR   .GAPI        :5 GAMMA RAY
NPHI .V/V         :6 NEUTRON POROSITY
RHOB .G/CC        :7 BULK DENSITY
~PARAMETER INFORMATION BLOCK
#MNEM .UNIT        Value              Information
#---- -----        -----------------  ---------------------------
BHT  .DEGF        194.0000  :BOTTOM HOLE TEMPERATURE
RMF  .OHMM          0.4410  :MUD FILTRATE RESISTIVITY
RMFT .DEGF         68.0000  :MEASURE TEMPERATURE OF RMF
EKB  .F          4642.0000  :ELEVATION KELLY BUSHING
SECT .      36                     :SECTION
TOWN .      47N                    :TOWNSHIP
RANG .      71W                    :RANGE
~ASCII DATA
# ...
10279.0000     62.4000     22.0000     42.1000    130.0000    0.3500      2.0800
10280.0000     62.0000     24.0000     42.9000    124.0000    0.3450      2.0900
10281.0000     60.7000     26.0000     43.9000     87.0000    0.3400      2.1000
10282.0000     57.5000     30.0000     44.7000     53.0000    0.3350      2.1100
10283.0000     56.0000     33.0000     45.6000     46.0000    0.3300      2.1200
10284.0000     56.0000     34.0000     46.6000     58.0000    0.3250      2.1300
10285.0000     57.8000     30.0000     47.2000     83.0000    0.3200      2.1400
10286.0000     60.0000     28.0000     48.0000    100.0000    0.3150      2.1500
10287.0000     60.3000     26.0000     48.6000    101.0000    0.3100      2.1600
10288.0000     60.2000     26.0000     50.2000     92.0000    0.3050      2.1700
10289.0000     59.9000     29.0000     51.2000     85.0000    0.3000      2.1800
10290.0000     60.4000     34.0000     52.8000     99.0000    0.2950      2.1900
10291.0000     60.9000     35.0000     54.2000    105.0000    0.2900      2.2000
10292.0000     61.4000     39.0000     55.2000    107.0000    0.2850      2.2100
10293.0000     61.4000     44.0000     56.0000     97.0000    0.2800      2.2200
10294.0000     56.1000     66.0000     57.2000     62.0000    0.2750      2.2300
10295.0000     51.2000    122.0000     58.0000     46.0000    0.2700      2.2400
10296.0000     48.4000    248.0000     59.0000     45.0000    0.2650      2.2500
10297.0000     48.5000   1724.0000     59.6000     33.0000    0.2600      2.2600
10298.0000     49.8000   2036.0000     60.8000     23.0000    0.2550      2.2700
10299.0000     49.8000   2036.0000     62.3000     20.0000    0.2500      2.2800
10300.0000     50.0000   2055.0000     63.5000     15.0000    0.2450      2.2900
10301.0000     50.9000   2093.0000     64.7000     11.0000    0.2400      2.3000
10302.0000     50.5000   2113.0000     66.3000     13.0000    0.2350      2.3100
10303.0000     47.9000   2113.0000     67.7000     16.0000    0.2300      2.3200
10304.0000     46.3000   2113.0000     68.9000     21.0000    0.2250      2.3300
10305.0000     46.1000   2093.0000     70.7000     30.0000    0.2200      2.3400
10306.0000     46.4000   1631.0000     72.1000     38.0000    0.2150      2.3500
10307.0000     46.4000    751.0000     73.1000     39.0000    0.2100      2.3600
10308.0000     45.8000    250.0000     74.5000     35.0000    0.2050      2.3700
10309.0000     45.9000    216.0000     75.9000     30.0000    0.2000      2.3800
10310.0000     46.5000    199.0000     77.3000     25.0000    0.1950      2.3900
10311.0000     46.7000    176.0000     78.8000     24.0000    0.1900      2.4000
10312.0000     47.3000    130.0000     80.8000     27.0000    0.1850      2.4100
10313.0000     51.9000     95.0000     83.4000     21.0000    0.1800      2.4200
10314.0000     55.7000     69.0000     85.4000     17.0000    0.1750      2.4300
10315.0000     61.2000     47.0000     87.6000     16.0000    0.1700      2.4400
10316.0000     66.5000     31.0000     89.8000     16.0000    0.1650      2.4500
10317.0000     68.9000     21.0000     91.4000     18.0000    0.1600      2.4600
10318.0000     69.6000     17.5000     93.4000     19.0000    0.1550      2.4700
10319.0000     69.6000     16.1000     94.2000     19.0000    0.1500      2.4800
10320.0000     69.1000     16.1000     95.1000     16.0000    0.1450      2.4900
10321.0000     68.0000     16.1000     95.5000     18.0000    0.1400      2.5000
10322.0000     66.9000     17.5000     95.5000     19.0000    0.1350      2.5100
10323.0000     66.7000     18.0000     95.5000     17.0000    0.1300      2.5200
10324.0000     66.6000     18.3000     95.5000     17.0000    0.1250      2.5300
10325.0000     66.0000     18.3000     95.7000     17.0000    0.1200      2.5400
10326.0000     65.0000     18.3000     96.5000     17.0000    0.1150      2.5500
10327.0000     64.4000     18.3000     96.7000     17.0000    0.1100      2.5600
10328.0000     64.0000     18.2000     96.9000     18.0000    0.1050      2.5700
10329.0000     64.6000     17.4000     97.1000     22.0000    0.1000      2.5800
10330.0000     64.7000     16.3000     97.1000     22.0000    0.0950      2.5900
10331.0000     64.4000     15.4000     96.7000     21.0000    0.0900      2.6000
10332.0000     64.4000     14.0000     95.9000     17.0000    0.0850      2.6100
10333.0000     65.5000     12.7000     95.1000     14.0000    0.0800      2.6200
10334.0000     67.4000     11.0000     94.8000     13.0000    0.0750      2.6300
10335.0000     69.3000      9.0000     94.8000     18.0000    0.0700      2.6400
10336.0000     70.9000      7.5000     94.8000     19.0000    0.0650      2.6500
10337.0000     72.4000      6.7000     94.8000     20.0000    0.0600      2.6600
10338.0000     73.3000      6.1000     95.5000     20.0000    0.0550      2.6700
10339.0000     73.7000      5.7000     96.3000     18.0000    0.0500      2.6800
10340.0000     73.8000      5.6000     97.1000     17.0000    0.0450      2.6900
10341.0000     73.4000      5.3000     98.1000     17.0000    0.0400      2.7000
10342.0000     73.4000      5.0000     99.1000     16.0000    0.0350      2.7100
10343.0000     74.4000      4.5000     99.5000     14.0000    0.0300      2.7200
10344.0000     75.4000      4.0000     99.9000     15.0000    0.0250      2.7300
10345.0000     75.2000      3.5000    100.1000     19.0000    0.0200      2.7400
10346.0000     72.6000      3.2000    100.1000     24.0000    0.0180      2.7500
10347.0000     71.6000      2.8000    100.1000     24.0000    0.0160      2.7600
10348.0000     72.0000      2.5000     99.9000     19.0000    0.0140      2.7700
10349.0000     74.3000      2.2000     99.9000     22.0000    0.0120      2.7800
10350.0000     74.6000      1.9400    100.1000     24.0000    0.0100      2.7900
10351.0000     74.7000      1.7200    101.9000     22.0000    0.0090      2.8000
10352.0000     72.3000      1.5900    102.1000     20.0000    0.0080      2.8100
10353.0000     71.9000      1.5000    103.9000     17.0000    0.0070      2.8200
10354.0000     75.5000      1.4300    104.9000     16.0000    0.0060      2.8300
10355.0000     77.6000      1.3700    105.7000     16.0000    0.0050      2.8400
10356.0000     78.3000      1.3400    106.1000     16.0000    0.0040      2.8500
10357.0000     75.8000      1.3400    106.3000     16.0000    0.0045      2.8400
10358.0000     73.8000      1.3800    106.5000     17.0000    0.0050      2.8300
10359.0000     71.6000      1.5900    106.5000     17.0000    0.0060      2.8200
10360.0000     69.3000      2.0000    106.5000     18.0000    0.0070      2.8100
10361.0000     67.1000      2.9000    106.5000     30.0000    0.0080      2.8000
10362.0000     65.0000      3.3000    106.5000     36.0000    0.0090      2.7900
10363.0000     64.0000      3.8000    105.9000     34.0000    0.0100      2.7800
10364.0000     63.8000      4.5000    105.3000     33.0000    0.0120      2.7700
10365.0000     63.9000      5.0000    104.7000     36.0000    0.0140      2.7600
10366.0000     65.1000      5.3000    104.7000     37.0000    0.0160      2.7500
10367.0000     65.5000      5.5000    104.5000     30.0000    0.0180      2.7400
10368.0000     64.3000      5.6000    104.5000     24.0000    0.0200      2.7300
10369.0000     64.4000      5.6000    104.5000     25.0000    0.0220      2.7200
10370.0000     66.0000      5.7000    104.5000     29.0000    0.0240      2.7100
10371.0000     66.0000      5.7000    104.7000     32.0000    0.0260      2.7000
10372.0000     64.6000      5.7000    105.9000     33.0000    0.0280      2.6900
10373.0000     64.9000      5.7000    106.9000     32.0000    0.0300      2.6800
10374.0000     65.0000      5.8000    109.1000     32.0000    0.0320      2.6700
10375.0000     62.6000      6.3000    109.7000     27.0000    0.0340      2.6600
10376.0000     60.4000      7.2000    108.7000     22.0000    0.0360      2.6500
10377.0000     59.3000      8.1000    107.9000     19.0000    0.0380      2.6400
